{"pois":[{"nombre":"Nido del Búho","servicio":"bar","lat":"37.1899118","lng":"-3.6095761","tiempoVisita":50.0,"horario":["Mo-Sa 10:00-14:00"]},{"nombre":"Restaurante La Corrala del Carbón","servicio":"restaurant","lat":"37.1748639","lng":"-3.5982804","tiempoVisita":20.0,"horario":["Mo-Su 05:30-22:00"]},{"nombre":"Puzzle Club","servicio":"bar","lat":"37.1755138","lng":"-3.6021055","tiempoVisita":57.0,"horario":["Mo-Su 05:30-22:00"]},{"nombre":"Buzón de Correos","servicio":"post_box","lat":"37.1815584","lng":"-3.6128731","tiempoVisita":23.0,"horario":["Mo-Su 00:00-23:59"]},{"nombre":"El Balcón de San Nicolás","servicio":"restaurant","lat":"37.1809192","lng":"-3.5927559","tiempoVisita":43.0,"horario":["Sa 09:30-14:00"]},{"nombre":"Visión","servicio":"clinic","lat":"37.1845962","lng":"-3.6086771","tiempoVisita":55.0,"horario":["Mo-Fr 13:30-18:00","Sa-Su 09:00-11:00"]},{"nombre":"Convento de las Comendadoras de Santiago","servicio":"place_of_worship","lat":"37.17206459005010","lng":"-3.593451851345810","tiempoVisita":56.0,"horario":["Mo-Th 11:30-17:00","Fr-Sa 13:00-19:30"]},{"nombre":"Alameda Café","servicio":"cafe","lat":"37.1722959","lng":"-3.5982398","tiempoVisita":25.0,"horario":["Mo-Su 06:00-09:00"]},{"nombre":"Los Manueles","servicio":"restaurant","lat":"37.1757961","lng":"-3.5964749","tiempoVisita":59.0,"horario":["Mo-Th 11:30-17:00","Fr-Sa 13:00-19:30"]},{"nombre":"La Pajuna","servicio":"restaurant","lat":"37.1804281","lng":"-3.5967747","tiempoVisita":49.0,"horario":["Mo-We 13:30-16:00","Mo-We 18:00-23:30"]},{"nombre":"Restaurante La Cueva de 1900","servicio":"restaurant","lat":"37.1865009","lng":"-3.6098771","tiempoVisita":26.0,"horario":["Mo-Sa 10:00-14:00"]},{"nombre":"Candelas","servicio":"cafe","lat":"37.1798857","lng":"-3.6027419","tiempoVisita":56.0,"horario":["Mo-Fr 08:30-20:30"]},{"nombre":"La Vianda","servicio":"restaurant","lat":"37.1736874","lng":"-3.6058789","tiempoVisita":32.0,"horario":["Mo-Su 8:00-22:00"]},{"nombre":"El Tabernaculo","servicio":"pub","lat":"37.1899118","lng":"-3.6049761","tiempoVisita":40.0,"horario":["Mo-Sa 18:00-02:00"]},{"nombre":"Aparcamiento Arabial","servicio":"parking","lat":"37.16713104901510","lng":"-3.605993614927840","tiempoVisita":40.0,"horario":["Mo-Sa 10:00-14:00"]},{"nombre":"Churrería Saray","servicio":"cafe","lat":"37.1899388","lng":"-3.6106892","tiempoVisita":56.0,"horario":["Mo-Su 7:00-14:00"]},{"nombre":"Farmacia Plaza de Trinidad","servicio":"pharmacy","lat":"37.1764263","lng":"-3.6017102","tiempoVisita":49.0,"horario":["Mo-We 13:30-16:00","Mo-We 18:00-23:30"]},{"nombre":"La Finca Coffee","servicio":"cafe","lat":"37.1762263","lng":"-3.6001362","tiempoVisita":20.0,"horario":["Mo-Su 06:00-09:00"]},{"nombre":"Aro 21","servicio":"pub","lat":"37.159311","lng":"-3.60816","tiempoVisita":24.0,"horario":["Mo-Su 7:00-14:00"]},{"nombre":"Wowble!","servicio":"cafe","lat":"37.1745365","lng":"-3.6003587","tiempoVisita":46.0,"horario":["Mo-Fr 09:00-14:00"]},{"nombre":"Cafeteria Casa Isla","servicio":"cafe","lat":"37.1833211","lng":"-3.6032754","tiempoVisita":48.0,"horario":["Mo-We 13:30-16:00","Mo-We 18:00-23:30"]},{"nombre":"Ilustre Colegio Oficial de Veterinarios de Granada","servicio":"veterinary","lat":"37.1837316","lng":"-3.6069155","tiempoVisita":44.0,"horario":["Mo-Sa 10:00-14:00"]},{"nombre":"Pomodoro","servicio":"restaurant","lat":"37.1575469","lng":"-3.5834718","tiempoVisita":37.0,"horario":["We-Th 12:00-17:00","We-Th 20:00-23:00"]},{"nombre":"Ricardo Muñoz Martínez","servicio":"dentist","lat":"37.1770051","lng":"-3.6035846","tiempoVisita":57.0,"horario":["Mo-Fr 09:00-14:00"]},{"nombre":"Colegio de Educación Infantil y Primaria Jardín de la Reina","servicio":"school","lat":"37.163598627587800","lng":"-3.603943483428310","tiempoVisita":34.0,"horario":["Mo-We 13:30-16:00","Mo-We 18:00-23:30"]},{"nombre":"Bar Pasiegas","servicio":"restaurant","lat":"37.1761982","lng":"-3.5998662","tiempoVisita":25.0,"horario":["Mo-Su 05:30-22:00"]},{"nombre":"Puerta de la Alpujarra","servicio":"restaurant","lat":"37.1769128","lng":"-3.6053993","tiempoVisita":46.0,"horario":["Mo-Su 8:00-22:00"]},{"nombre":"Buzón de Correos","servicio":"post_box","lat":"37.1782035","lng":"-3.6015434","tiempoVisita":36.0,"horario":["Mo-Su 06:00-09:00"]},{"nombre":"Centro de Menores Bermúdez Castro","servicio":"school","lat":"37.17997414570550","lng":"-3.58879695081785","tiempoVisita":57.0,"horario":["Tu-Su 13:00-16:00","Tu-Su 20:00-23:59"]},{"nombre":"Comisaría de Policía del Distrito Sur","servicio":"police","lat":"37.1540154","lng":"-3.6018414","tiempoVisita":54.0,"horario":["Mo-Su 12:00-23:59"]},{"nombre":"Escuela Oficial de Idiomas de Granada","servicio":"language_school","lat":"37.21041245","lng":"-3.61616305","tiempoVisita":23.0,"horario":["Mo-We 13:30-16:00","Mo-We 18:00-23:30"]},{"nombre":"Escuela Internacional de Gerencia","servicio":"college","lat":"37.19775202209350","lng":"-3.63046189237864","tiempoVisita":53.0,"horario":["Mo-Th 11:30-17:00","Fr-Sa 13:00-19:30"]},{"nombre":"Nestares","servicio":"pharmacy","lat":"37.1784059","lng":"-3.6038448","tiempoVisita":35.0,"horario":["Mo-Fr 08:30-20:30"]},{"nombre":"Petrol & Go Granada","servicio":"fuel","lat":"37.19767251984170","lng":"-3.639217478702410","tiempoVisita":26.0,"horario":["Mo-Sa 12:00-23:59","Tu-Su 00:00-02:00"]},{"nombre":"Aparcamiento de Parque de las Ciencias - Edificio Macroscopio","servicio":"parking","lat":"37.16260342929350","lng":"-3.606557466063960","tiempoVisita":27.0,"horario":["Mo-Su 7:00-14:00"]},{"nombre":"La Fontana","servicio":"pub","lat":"37.1780772","lng":"-3.5936546","tiempoVisita":40.0,"horario":["Mo-Su 05:30-22:00"]},{"nombre":"Farmacia Ricardo Jesús Díaz García","servicio":"pharmacy","lat":"37.1879946","lng":"-3.6182128","tiempoVisita":46.0,"horario":["Mo-Su 12:00-23:59"]},{"nombre":"Teatro del Generalife","servicio":"theatre","lat":"37.17602920235930","lng":"-3.5847663117459400","tiempoVisita":52.0,"horario":["Mo-Su 05:30-22:00"]},{"nombre":"Parque de Bomberos Sur","servicio":"fire_station","lat":"37.16489264928700","lng":"-3.598804759444930","tiempoVisita":20.0,"horario":["Mo-Su 8:00-22:00"]},{"nombre":"Farmacia Bola de Oro","servicio":"pharmacy","lat":"37.1611849","lng":"-3.5850565","tiempoVisita":56.0,"horario":["Mo-Su 06:00-09:00"]},{"nombre":"Tabernilla del Darro","servicio":"restaurant","lat":"37.1779643","lng":"-3.5932169","tiempoVisita":32.0,"horario":["Mo-Su 05:30-22:00"]},{"nombre":"Repsol","servicio":"fuel","lat":"37.1683139565946","lng":"-3.6091626936664200","tiempoVisita":24.0,"horario":["Mo-Su 05:30-22:00"]},{"nombre":"Escuela Internacional de Posgrado","servicio":"university","lat":"37.1872766","lng":"-3.604308","tiempoVisita":24.0,"horario":["Mo-Su 00:00-23:59"]},{"nombre":"Puentezuelas 43","servicio":"cafe","lat":"37.1746572","lng":"-3.6027883","tiempoVisita":31.0,"horario":["Mo-Fr 09:00-14:00"]},{"nombre":"Centro de Consultas Externas","servicio":"hospital","lat":"37.18922903397710","lng":"-3.60907443670105","tiempoVisita":53.0,"horario":["Mo-Fr 09:00-14:00"]},{"nombre":"Estación de Servicio Fuentenueva","servicio":"fuel","lat":"37.1566544","lng":"-3.594403","tiempoVisita":45.0,"horario":["Sa 09:30-14:00"]},{"nombre":"Centro Cívico Genil","servicio":"community_centre","lat":"37.16342162098870","lng":"-3.5871639518583100","tiempoVisita":24.0,"horario":["Mo-Su 00:00-23:59"]},{"nombre":"Pizzería Bella Ciao","servicio":"restaurant","lat":"37.1726275","lng":"-3.6050995","tiempoVisita":45.0,"horario":["Mo-Su 06:00-09:00"]},{"nombre":"Casa Encarna","servicio":"restaurant","lat":"37.1721285","lng":"-3.6057958","tiempoVisita":21.0,"horario":["Tu-Su 13:00-16:00","Tu-Su 20:00-23:59"]},{"nombre":"Aparicio's","servicio":"restaurant","lat":"37.1718341","lng":"-3.60441","tiempoVisita":42.0,"horario":["Mo-Fr 09:00-14:00"]},{"nombre":"Vía Colón","servicio":"restaurant","lat":"37.1772878","lng":"-3.5985235","tiempoVisita":44.0,"horario":["Mo-Th 11:30-17:00","Fr-Sa 13:00-19:30"]},{"nombre":"Biblioteca de Derecho","servicio":"library","lat":"37.1787575","lng":"-3.6030746","tiempoVisita":28.0,"horario":["Mo-We 7:00-14:00"]},{"nombre":"Los Diamantes II","servicio":"pub","lat":"37.1726272","lng":"-3.596128","tiempoVisita":26.0,"horario":["Mo-Th 11:30-17:00","Fr-Sa 13:00-19:30"]},{"nombre":"Parking Victoria","servicio":"parking","lat":"37.1731078192708","lng":"-3.5999627457161600","tiempoVisita":41.0,"horario":["Mo-Su 05:30-22:00"]},{"nombre":"La Gran Taberna","servicio":"bar","lat":"37.1766428","lng":"-3.5958981","tiempoVisita":47.0,"horario":["Mo-Fr 09:00-14:00"]},{"nombre":"La Sitarilla","servicio":"pub","lat":"37.1733955","lng":"-3.6036013","tiempoVisita":38.0,"horario":["Mo-We 13:30-16:00","Mo-We 18:00-23:30"]},{"nombre":"Consignas Granada","servicio":"luggage_locker","lat":"37.1770846","lng":"-3.5962638","tiempoVisita":50.0,"horario":["Mo-We 13:30-16:00","Mo-We 18:00-23:30"]},{"nombre":"Caja Rural de Granada","servicio":"bank","lat":"37.1878252","lng":"-3.6128539","tiempoVisita":25.0,"horario":["Mo-Su 12:00-23:59"]},{"nombre":"Pilar de Carlos V","servicio":"fountain","lat":"37.1758643","lng":"-3.5900663","tiempoVisita":42.0,"horario":["We-Th 12:00-17:00","We-Th 20:00-23:00"]},{"nombre":"Oficina de Correos","servicio":"post_office","lat":"37.1733071","lng":"-3.5993786","tiempoVisita":23.0,"horario":["Mo-Su 12:00-23:59"]},{"nombre":"Farmacia Las Flores","servicio":"pharmacy","lat":"37.1679584","lng":"-3.6059283","tiempoVisita":50.0,"horario":["Mo-Sa 10:00-14:00"]},{"nombre":"La Bella y la Bestia","servicio":"pub","lat":"37.1785175","lng":"-3.5925353","tiempoVisita":51.0,"horario":["Mo-Su 00:00-23:59"]},{"nombre":"Titapaca","servicio":"pub","lat":"37.1745191","lng":"-3.6072498","tiempoVisita":29.0,"horario":["Mo-Fr 13:30-18:00","Sa-Su 09:00-11:00"]},{"nombre":"El Bermejal","servicio":"restaurant","lat":"37.1738664","lng":"-3.6062157","tiempoVisita":28.0,"horario":["Mo-Sa 12:00-23:59","Tu-Su 00:00-02:00"]},{"nombre":"Los Lobos","servicio":"veterinary","lat":"37.1771351","lng":"-3.6036675","tiempoVisita":33.0,"horario":["Mo-We 7:00-14:00"]},{"nombre":"7 Gatos","servicio":"restaurant","lat":"37.1681862","lng":"-3.598956","tiempoVisita":37.0,"horario":["Mo-Fr 09:00-14:00"]},{"nombre":"Los faroles cuevas","servicio":"bar","lat":"37.1818414","lng":"-3.5837864","tiempoVisita":38.0,"horario":["Mo-Fr 08:30-20:30"]},{"nombre":"Colegio Compañía de María","servicio":"school","lat":"37.18837424137770","lng":"-3.611798892462740","tiempoVisita":53.0,"horario":["Mo-Su 7:00-14:00"]},{"nombre":"Estación de Servicio Carrefour Granada","servicio":"fuel","lat":"37.155211","lng":"-3.6099542","tiempoVisita":56.0,"horario":["Mo-Su 06:00-09:00"]},{"nombre":"Colegio Miguel Hernández","servicio":"school","lat":"37.19848805334960","lng":"-3.596745861924660","tiempoVisita":50.0,"horario":["Mo-Su 7:00-14:00"]},{"nombre":"Apo","servicio":"restaurant","lat":"37.1863182","lng":"-3.6056532","tiempoVisita":56.0,"horario":["We-Th 12:00-17:00","We-Th 20:00-23:00"]},{"nombre":"Convento de Nuestra Señora de la Piedad","servicio":"place_of_worship","lat":"37.1773911468652","lng":"-3.602534390174670","tiempoVisita":39.0,"horario":["Mo-Fr 08:30-20:30"]},{"nombre":"Autoescuela Vial Granada","servicio":"driving_school","lat":"37.1614905","lng":"-3.5940732","tiempoVisita":29.0,"horario":["Mo-Fr 13:30-18:00","Sa-Su 09:00-11:00"]},{"nombre":"Colegio de Educación Infantil y Primaria Virgen de las Nieves","servicio":"school","lat":"37.1659017748881","lng":"-3.5861333291311700","tiempoVisita":31.0,"horario":["Mo-Su 05:30-22:00"]},{"nombre":"León","servicio":"restaurant","lat":"37.177022","lng":"-3.5965361","tiempoVisita":56.0,"horario":["Mo-Su 05:30-22:00"]},{"nombre":"Pizza & Pasta","servicio":"fast_food","lat":"37.1730106","lng":"-3.5993067","tiempoVisita":56.0,"horario":["Tu-Su 13:00-16:00","Tu-Su 20:00-23:59"]},{"nombre":"Farmacia López Sánchez","servicio":"pharmacy","lat":"37.1665443","lng":"-3.5949831","tiempoVisita":43.0,"horario":["Mo-Su 8:00-22:00"]},{"nombre":"Granada 10","servicio":"nightclub","lat":"37.1774842","lng":"-3.5978761","tiempoVisita":54.0,"horario":["Tu-Su 13:00-16:00","Tu-Su 20:00-23:59"]},{"nombre":"Fuente del Pimiento","servicio":"fountain","lat":"37.1742781","lng":"-3.5870642","tiempoVisita":22.0,"horario":["Mo-Fr 08:30-20:30"]},{"nombre":"MRW","servicio":"post_office","lat":"37.1780012","lng":"-3.604309","tiempoVisita":55.0,"horario":["We-Th 12:00-17:00","We-Th 20:00-23:00"]},{"nombre":"Caja Rural","servicio":"bank","lat":"37.1716311","lng":"-3.6030157","tiempoVisita":21.0,"horario":["Mo-Sa 10:00-14:00"]},{"nombre":"Negro Carbón","servicio":"restaurant","lat":"37.1777054","lng":"-3.5936398","tiempoVisita":30.0,"horario":["Mo-Fr 09:00-14:00"]},{"nombre":"El Establo","servicio":"pub","lat":"37.1773662","lng":"-3.6049582","tiempoVisita":44.0,"horario":["Mo-Su 00:00-23:59"]},{"nombre":"Aparcamiento Hospital La Inmaculada","servicio":"parking","lat":"37.16445199418720","lng":"-3.608105202635760","tiempoVisita":27.0,"horario":["Mo-We 7:00-14:00"]},{"nombre":"Colegio Santa María Micaela","servicio":"school","lat":"37.19143865632480","lng":"-3.625377431303260","tiempoVisita":36.0,"horario":["Tu-Su 13:00-16:00","Tu-Su 20:00-23:59"]},{"nombre":"Fuente de Canaletas","servicio":"drinking_water","lat":"37.1619003","lng":"-3.5947699","tiempoVisita":59.0,"horario":["Mo-Fr 08:30-20:30"]},{"nombre":"Oliver","servicio":"restaurant","lat":"37.1759394","lng":"-3.6005171","tiempoVisita":26.0,"horario":["Mo-Sa 10:00-14:00"]},{"nombre":"Martin's","servicio":"restaurant","lat":"37.1860458","lng":"-3.605874","tiempoVisita":32.0,"horario":["Mo-Su 00:00-23:59"]},{"nombre":"Gallio","servicio":"restaurant","lat":"37.1755401","lng":"-3.6001959","tiempoVisita":26.0,"horario":["Mo-Fr 09:00-14:00"]},{"nombre":"Disloque","servicio":"restaurant","lat":"37.1734603","lng":"-3.5960181","tiempoVisita":25.0,"horario":["Mo-Su 00:00-23:59"]},{"nombre":"Carmela","servicio":"restaurant","lat":"37.1756484","lng":"-3.5964644","tiempoVisita":52.0,"horario":["We-Th 12:00-17:00","We-Th 20:00-23:00"]},{"nombre":"Pizzería La Nonna","servicio":"restaurant","lat":"37.1905376","lng":"-3.6094694","tiempoVisita":28.0,"horario":["Mo-Su 06:00-09:00"]},{"nombre":"Instituto de Educación Secundaria Cartuja","servicio":"school","lat":"37.20245083054070070","lng":"-3.5984937009058300","tiempoVisita":24.0,"horario":["Sa 09:30-14:00"]},{"nombre":"Castillo Biejo","servicio":"restaurant","lat":"37.1772683","lng":"-3.5974406","tiempoVisita":57.0,"horario":["Mo-Sa 10:00-14:00"]},{"nombre":"Fuente del Tomate","servicio":"fountain","lat":"37.1747469","lng":"-3.5887919","tiempoVisita":56.0,"horario":["Tu-Su 13:00-16:00","Tu-Su 20:00-23:59"]},{"nombre":"Caja Rural","servicio":"bank","lat":"37.1741901","lng":"-3.6062725","tiempoVisita":41.0,"horario":["Mo-Fr 08:30-20:30"]},{"nombre":"BBVA","servicio":"bank","lat":"37.1857353","lng":"-3.6124785","tiempoVisita":48.0,"horario":["We-Th 12:00-17:00","We-Th 20:00-23:00"]},{"nombre":"Colegio Ave María San Cristobal","servicio":"college","lat":"37.18419963857770","lng":"-3.596373735888810","tiempoVisita":50.0,"horario":["Mo-Su 00:00-23:59"]},{"nombre":"Terraza Asador Bar-Ranco","servicio":"restaurant","lat":"37.1684081","lng":"-3.5841253","tiempoVisita":33.0,"horario":["Mo-Fr 13:30-18:00","Sa-Su 09:00-11:00"]},{"nombre":"El Origen","servicio":"pub","lat":"37.1781009","lng":"-3.5978807","tiempoVisita":21.0,"horario":["Mo-Fr 08:30-20:30"]}]}